City_ID,City,Lat,Lng,Max Temp,Humidity,Cloudiness,Wind Speed,Country,Date
0,zatec,50.3272,13.5458,7.97,79,96,2.36,CZ,1729134994
1,lihue,21.9789,-159.3672,27.77,65,20,7.72,US,1729134995
2,waitangi,-43.9535,-176.5597,10.46,80,57,2.68,NZ,1729134997
3,petauke,-14.2426,31.3253,16.12,80,62,3.85,ZM,1729134998
4,ilulissat,69.2167,-51.1,-7.99,62,2,2.57,GL,1729134999
5,anadyr,64.75,177.4833,2.28,80,0,3.0,RU,1729135000
6,enewetak,11.3474,162.3373,28.67,77,100,7.37,MH,1729135001
7,doba,8.65,16.85,21.6,94,81,1.31,TD,1729135002
8,selfoss,63.9331,-20.9971,4.47,93,91,1.84,IS,1729135003
9,petropavlovsk-kamchatsky,53.0452,158.6483,8.33,43,20,8.0,RU,1729135004
10,solleftea,63.1667,17.2667,-1.08,77,100,3.41,SE,1729135005
11,adamstown,-25.066,-130.1015,21.27,84,100,8.21,PN,1729135006
12,port-aux-francais,-49.35,70.2167,2.42,80,92,13.16,TF,1729134725
13,tadine,-21.55,167.8833,21.19,90,99,2.71,NC,1729135010
14,papatowai,-46.5619,169.4708,13.94,52,96,3.81,NZ,1729135011
15,edinburgh of the seven seas,-37.0676,-12.3116,12.71,65,42,1.98,SH,1729135012
16,lebu,-37.6167,-73.65,12.34,95,100,6.26,CL,1729135013
17,broken hill,-31.95,141.4333,34.09,22,100,11.15,AU,1729135014
18,hawaiian paradise park,19.5933,-154.9731,25.73,74,100,2.06,US,1729135015
19,severo-yeniseyskiy,60.3725,93.0408,-11.26,76,76,0.99,RU,1729135016
20,carutapera,-1.195,-46.02,25.84,74,44,3.97,BR,1729135017
21,quellon,-43.1167,-73.6167,9.75,97,100,4.41,CL,1729135018
22,saint-philippe,-21.3585,55.7679,23.2,78,30,1.97,RE,1729135019
23,calchaqui,-29.8877,-60.287,18.83,70,37,3.7,AR,1729135021
24,college,64.8569,-147.8028,-1.63,68,75,3.09,US,1729135022
25,iqaluit,63.7506,-68.5145,-0.15,100,100,7.2,CA,1729135023
26,villa zaragoza,22.0333,-100.7333,11.8,90,9,2.83,MX,1729135024
27,nar'yan-mar,67.6713,53.087,2.28,92,100,6.66,RU,1729135025
28,medina,24.4686,39.6142,26.24,19,0,2.06,SA,1729134967
29,zhigalovo,54.8097,105.1578,-8.82,61,49,5.02,RU,1729135027
30,palmer,42.1584,-72.3287,4.95,83,0,0.0,US,1729134735
31,felida,45.7096,-122.7073,12.77,76,0,2.57,US,1729135029
32,swakopmund,-22.6833,14.5333,11.1,84,1,3.21,NA,1729134915
33,tura,25.5198,90.2201,24.36,77,76,0.66,IN,1729135032
34,la'ie,21.6477,-157.9253,27.66,70,33,4.92,US,1729135033
35,lompoc,34.6391,-120.4579,15.94,88,40,7.15,US,1729135034
36,mazar-e sharif,36.709,67.1109,15.23,20,0,0.72,AF,1729135035
37,ladario,-19.0047,-57.6017,25.34,68,45,0.96,BR,1729135037
38,chegdomyn,51.1167,133.0167,3.97,44,57,3.21,RU,1729135038
39,blackmans bay,-43.0167,147.3167,18.62,71,100,0.89,AU,1729135039
40,pisco,-13.7,-76.2167,17.23,88,0,4.12,PE,1729134877
41,grytviken,-54.2811,-36.5092,-0.32,81,21,5.85,GS,1729135042
42,karratha,-20.7377,116.8463,26.99,22,0,4.99,AU,1729135043
43,arno,60.1167,18.6333,6.97,88,70,5.6,SE,1729135044
44,puerto natales,-51.7236,-72.4875,6.24,95,100,0.93,CL,1729135045
45,murzuq,25.9155,13.9184,21.51,42,2,2.92,LY,1729134832
46,dapa,9.7594,126.0531,29.37,67,61,1.03,PH,1729135047
47,invercargill,-46.4,168.35,14.45,65,100,3.13,NZ,1729135048
48,bontang,0.1333,117.5,26.45,84,100,1.87,ID,1729135049
49,sorong,-0.8833,131.25,28.21,73,67,0.32,ID,1729135050
50,jamestown,42.097,-79.2353,3.8,93,0,0.89,US,1729135052
51,revda,56.801,59.9303,1.12,64,100,1.15,RU,1729135053
52,avarua,-21.2078,-159.775,24.03,64,20,3.09,CK,1729135054
53,paragominas,-2.9667,-47.4833,24.83,71,15,1.72,BR,1729135056
54,arauca,7.0847,-70.7591,25.98,94,20,0.0,CO,1729135057
55,chul'man,56.8479,124.9104,-5.45,73,100,2.97,RU,1729135058
56,hithadhoo,-0.6,73.0833,28.87,73,91,8.4,MV,1729135059
57,mejit,10.2753,170.8646,28.37,77,100,4.76,MH,1729135060
58,albany,42.6001,-73.9662,4.36,58,3,2.09,US,1729134872
59,nuuk,64.1835,-51.7216,-1.66,74,0,2.06,GL,1729134974
60,kristiansund,63.1115,7.732,14.36,47,100,4.12,NO,1729135064
61,bilibino,68.0546,166.4372,-3.07,95,100,1.52,RU,1729135065
62,perry,37.2506,-83.1999,2.76,81,6,0.56,US,1729135066
63,bredasdorp,-34.5322,20.0403,14.81,80,33,3.86,ZA,1729135067
64,ushuaia,-54.8,-68.3,10.81,58,20,4.12,AR,1729134993
65,yellowknife,62.456,-114.3525,4.12,100,100,2.06,CA,1729135070
66,mormugao,15.4,73.8,24.59,94,100,3.09,IN,1729135071
67,caleta de carquin,-11.0925,-77.6267,17.58,87,80,4.5,PE,1729135072
68,wynyard,-41.0,145.7167,16.9,79,95,7.15,AU,1729135073
69,oltinko'l,40.8011,72.1634,10.43,49,2,0.5,UZ,1729135074
70,buka,40.8108,69.1986,7.02,52,0,0.44,UZ,1729135075
71,port elizabeth,-33.918,25.5701,19.06,77,100,1.54,ZA,1729134964
72,tateyama,34.9833,139.8667,24.5,77,48,4.92,JP,1729135079
73,bethel,41.3712,-73.414,6.98,71,0,0.89,US,1729135080
74,torghay,49.6339,63.4981,2.73,86,46,2.77,KZ,1729135081
75,alofi,-19.0595,-169.9187,26.94,65,40,5.14,NU,1729135082
76,suva,-18.1416,178.4415,27.71,74,75,2.06,FJ,1729135083
77,fort mcmurray,56.7268,-111.381,7.77,93,100,2.57,CA,1729135084
78,aliveri,38.4167,24.0333,18.01,68,97,7.79,GR,1729135085
79,wailua homesteads,22.0669,-159.378,27.44,79,20,7.72,US,1729135086
80,ust-nera,64.5667,143.2,-11.08,82,83,2.79,RU,1729135087
81,olonkinbyen,70.9221,-8.7187,1.34,99,100,4.67,SJ,1729135089
82,port alfred,-33.5906,26.891,15.66,89,99,3.64,ZA,1729135090
83,aykhal,66.0,111.5,-13.12,94,96,5.71,RU,1729135091
84,cockburn town,21.4612,-71.1419,29.41,69,6,7.88,TC,1729135092
85,manokwari,-0.8667,134.0833,28.61,71,72,4.94,ID,1729135093
86,maymana,35.9214,64.7836,13.41,31,2,0.85,AF,1729135094
87,port mathurin,-19.6833,63.4167,23.17,79,97,5.0,MU,1729135095
88,atafu village,-8.5421,-172.5159,28.26,71,34,5.6,TK,1729135097
89,vadso,70.0744,29.7487,2.09,87,75,2.57,NO,1729135098
90,constantia,44.1833,28.65,7.61,75,7,7.99,RO,1729135099
91,luderitz,-26.6481,15.1594,11.97,93,1,3.52,NA,1729134853
92,harnosand,62.6323,17.9379,0.0,79,99,8.77,SE,1729135101
93,hasaki,35.7333,140.8333,23.32,75,83,6.81,JP,1729135102
94,mapastepec,15.4333,-92.9,23.82,91,43,1.61,MX,1729135103
95,kainantu,-6.2887,145.8655,20.84,85,99,1.06,PG,1729135104
96,pitimbu,-7.4706,-34.8086,24.77,75,40,5.54,BR,1729135105
97,kaka,37.3482,59.6143,11.63,29,4,2.61,TM,1729135106
98,west island,-12.1568,96.8225,28.99,74,20,5.66,CC,1729135108
99,hauterive,46.0901,3.4459,15.92,92,63,2.34,FR,1729135109
100,tiksi,71.6872,128.8694,-11.8,87,98,2.31,RU,1729135110
101,udachny,66.4167,112.4,-12.27,91,94,4.57,RU,1729135111
102,khandyga,62.6667,135.6,-8.87,67,11,1.73,RU,1729135112
103,ribeira grande,38.5167,-28.7,17.1,79,27,1.79,PT,1729135113
104,isafjordur,66.0755,-23.124,-1.52,83,99,3.55,IS,1729135114
105,lumphat,13.4878,106.9816,29.05,75,64,0.71,KH,1729135115
106,thompson,55.7435,-97.8558,7.09,76,75,2.57,CA,1729135116
107,testour,36.5513,9.4431,22.88,62,61,1.6,TN,1729135119
108,urangan,-25.3,152.9,22.31,66,0,4.03,AU,1729135120
109,chonchi,-42.6128,-73.8092,10.62,99,100,1.72,CL,1729135100
110,afaahiti,-17.75,-149.2833,24.13,70,43,1.09,PF,1729135122
111,margaret river,-33.95,115.0667,16.09,56,12,4.47,AU,1729135123
112,vorkuta,67.5,64.0,-0.18,98,100,6.52,RU,1729135124
113,ceeldheer,3.8488,47.1806,25.09,86,66,6.2,SO,1729135125
114,weno,7.4515,151.8468,28.97,84,75,2.57,FM,1729135126
115,bardai,11.65,7.2333,22.12,59,100,3.36,NG,1729135127
116,mount gambier,-37.8333,140.7667,19.49,95,100,1.36,AU,1729135129
117,sittwe,20.15,92.9,28.03,72,7,1.58,MM,1729135134
118,hamilton,39.1834,-84.5333,7.47,83,20,1.34,US,1729135097
119,khanty-mansiysk,61.0042,69.0019,-1.94,64,0,2.0,RU,1729135136
120,holualoa,19.6228,-155.9522,26.91,83,20,4.12,US,1729135137
121,paradip garh,20.3167,86.6167,29.27,74,86,2.37,IN,1729135138
122,livny,52.4253,37.6069,5.17,89,100,5.96,RU,1729135139
123,kawalu,-7.3817,108.2082,27.95,48,99,2.43,ID,1729135140
124,happy valley-goose bay,53.3168,-60.3315,1.17,80,100,4.12,CA,1729135141
125,puerto ayora,-0.7393,-90.3518,20.31,99,79,2.68,EC,1729135142
126,san patricio,28.017,-97.5169,20.97,59,3,6.22,US,1729135144
127,kununurra,-15.7667,128.7333,35.99,41,75,2.06,AU,1729135145
128,mahina,-17.5065,-149.489,26.87,69,20,5.14,PF,1729135146
129,klyuchi,52.2667,79.1667,2.33,55,7,1.14,RU,1729135147
130,nemuro,43.3236,145.575,13.47,77,100,4.53,JP,1729135148
131,acarau,-2.8856,-40.12,25.51,79,11,4.4,BR,1729135149
132,uturoa,-16.7333,-151.4333,25.4,70,10,1.54,PF,1729135150
133,puerto aysen,-45.4,-72.7,8.62,98,98,1.39,CL,1729135151
134,hengchun,22.0042,120.7439,28.8,74,91,5.09,TW,1729135050
135,leninskoye,41.7589,69.3864,6.28,45,0,1.45,KZ,1729135153
136,kem',64.9555,34.5793,5.43,92,100,3.23,RU,1729135155
137,ione,38.3527,-120.9327,18.75,100,0,0.0,US,1729135156
138,badger,64.8,-147.5333,-1.68,74,100,3.09,US,1729135157
139,carnarvon,-24.8667,113.6333,22.11,57,64,7.23,AU,1729135158
140,onsala,57.4253,12.029,8.24,84,19,1.79,SE,1729135159
141,sitka,57.0531,-135.33,8.94,76,100,2.57,US,1729135160
142,vallo della lucania,40.2297,15.2658,20.93,69,100,1.73,IT,1729135089
143,antofagasta,-23.65,-70.4,14.6,76,51,3.04,CL,1729134912
144,whitehorse,60.7161,-135.0538,0.43,93,100,7.2,CA,1729135164
145,timaru,-44.4,171.25,13.37,73,100,2.68,NZ,1729135165
146,flying fish cove,-10.4217,105.6791,26.42,66,89,7.14,CX,1729135166
147,namsos,64.4662,11.4957,6.95,76,100,5.14,NO,1729135167
148,tsiombe,-25.3,45.4833,17.06,62,100,3.2,MG,1729135168
149,gwadar,25.1216,62.3254,28.59,48,40,4.2,PK,1729135169
150,iskateley,67.6803,53.1512,2.3,92,100,6.69,RU,1729135170
151,harper,4.375,-7.7169,24.58,89,100,2.59,LR,1729135171
152,tshela,-4.9833,12.9333,22.84,96,100,0.68,CD,1729135172
153,mantua,45.1667,10.7833,15.55,96,100,4.02,IT,1729135171
154,kingston,17.997,-76.7936,25.53,83,75,2.06,JM,1729134974
155,at taj,24.2049,23.2857,20.4,43,0,3.36,LY,1729135176
156,gadzhiyevo,69.2551,33.3362,2.37,90,77,4.6,RU,1729135177
157,tongouson,5.0214,120.1328,28.15,74,100,1.41,PH,1729135178
158,smara,26.7384,-11.6719,22.41,78,72,4.85,EH,1729135179
159,san antonio de pale,-1.4014,5.6325,24.74,81,98,5.98,GQ,1729135092
160,la passe,45.5549,-0.8967,16.68,89,99,5.38,FR,1729135181
161,la sarre,48.8002,-79.1996,2.0,69,29,3.13,CA,1729135183
162,loushanguan,28.1375,106.82,17.41,92,100,0.49,CN,1729135184
163,st. john's,47.5649,-52.7093,7.21,92,20,6.17,CA,1729134919
164,awjilah,29.1081,21.2869,20.55,70,0,3.26,LY,1729135186
165,sosnogorsk,63.6023,53.8817,1.36,92,59,2.16,RU,1729135187
166,bereznik,62.8551,42.7072,-0.43,95,9,1.96,RU,1729135188
167,echague,16.7052,121.6724,28.53,75,91,1.13,PH,1729135189
168,port sudan,19.6175,37.2164,28.48,60,2,2.36,SD,1729135121
169,port saint john's,-31.6229,29.5448,15.43,83,2,5.92,ZA,1729135191
170,prado,-17.3411,-39.2208,23.26,93,100,5.31,BR,1729135193
171,olinda,-8.0089,-34.8553,26.85,69,75,4.12,BR,1729135194
172,pathein,16.7833,94.7333,29.1,80,100,1.08,MM,1729135195
173,taroa,8.7058,171.2275,27.07,79,100,4.74,MH,1729135196
174,kingori,-3.2833,36.9833,16.21,88,69,1.15,TZ,1729135197
175,hermanus,-34.4187,19.2345,14.89,92,40,4.98,ZA,1729135198
176,kodiak,57.79,-152.4072,7.73,53,0,4.63,US,1729135199
177,palora,-1.7,-77.9333,21.48,76,98,1.39,EC,1729135200
178,ustyuzhna,58.8394,36.4321,3.17,92,95,1.49,RU,1729135201
179,talnakh,69.4865,88.3972,-14.1,92,100,5.88,RU,1729135203
180,oshakati,-17.7833,15.6833,23.08,27,97,4.17,NA,1729135204
181,muroto-misakicho,33.2833,134.15,24.89,72,99,6.27,JP,1729135205
182,santa rosalia,27.3167,-112.2833,22.94,46,20,3.95,MX,1729135206
183,pangai,-19.8,-174.35,25.06,83,75,6.69,TO,1729135207
184,klaksvik,62.2266,-6.589,9.96,100,100,3.36,FO,1729135208
185,nagqu,31.5,92.0,5.65,22,95,5.1,CN,1729135209
186,kamigyo-ku,35.0295,135.7567,25.73,51,12,1.35,JP,1729135099
187,sanctuary point,-35.1114,150.629,20.28,61,11,6.43,AU,1729135211
188,guerrero negro,27.9769,-114.0611,18.63,80,72,4.94,MX,1729135099
189,dapaong,10.8639,0.205,24.61,80,100,2.2,TG,1729135214
190,guiuan,11.0333,125.7247,28.71,67,73,1.83,PH,1729135215
191,mount pearl,47.5166,-52.7813,6.85,93,20,6.17,CA,1729135216
192,eyl,7.9803,49.8164,25.53,86,65,4.83,SO,1729135217
193,utrik,11.2278,169.8474,28.71,76,96,6.53,MH,1729135218
194,hami,42.8,93.45,16.68,26,99,3.94,CN,1729135219
195,ulladulla,-35.35,150.4667,20.54,61,17,4.83,AU,1729135220
196,hammerfest,70.6634,23.6821,7.25,81,100,2.57,NO,1729135221
197,stanley,54.868,-1.6985,14.04,98,75,2.06,GB,1729135223
198,save,8.0425,2.486,22.83,96,100,0.84,BJ,1729135224
199,cullman,34.1748,-86.8436,5.36,87,0,0.0,US,1729135225
200,kiunga,-6.1219,141.2906,29.09,70,99,1.66,PG,1729135226
201,codrington,-38.2667,141.9667,25.74,57,100,7.18,AU,1729135227
202,sanya,18.2431,109.505,33.09,66,20,4.0,CN,1729135164
203,necochea,-38.5473,-58.7368,12.58,73,100,6.55,AR,1729135229
204,la punta,-33.1837,-66.3127,22.02,67,0,6.56,AR,1729135230
205,kandalaksha,67.162,32.4123,2.26,98,86,0.68,RU,1729135231
206,pimentel,-6.8367,-79.9342,17.16,88,40,7.2,PE,1729135233
207,saldanha,-33.0117,17.9442,15.03,96,10,3.36,ZA,1729135234
208,sabang,5.8933,95.3214,28.23,77,93,7.86,ID,1729135235
209,namibe,-15.1961,12.1522,19.29,83,93,3.08,AO,1729135236
210,aasiaat,68.7098,-52.8699,-11.54,83,7,4.14,GL,1729135237
211,tehuitzingo,18.3306,-98.2764,21.83,70,26,2.18,MX,1729135238
212,matozinhos,-19.5578,-44.0814,24.24,57,0,2.57,BR,1729135239
213,likiep,9.8251,169.3107,27.4,79,98,4.72,MH,1729135240
214,amahai,-3.3333,128.9167,28.28,75,99,3.78,ID,1729135241
215,faro,37.0194,-7.9322,15.88,88,0,3.6,PT,1729135205
216,khovd,48.0056,91.6419,6.32,54,100,0.68,MN,1729135244
217,tazacorte,28.629,-17.9293,21.75,78,75,8.05,ES,1729135245
218,kirakira,-10.4544,161.9205,28.66,78,89,1.47,SB,1729135246
219,rio grande,-32.035,-52.0986,15.1,91,0,3.11,BR,1729135021
220,yerofey pavlovich,53.9667,121.9667,0.05,51,100,2.85,RU,1729135248
221,arteche,12.2645,125.4048,31.01,59,77,2.78,PH,1729135249
222,kavaratti,10.5669,72.642,26.77,84,100,4.24,IN,1729135154
223,georgetown,5.4112,100.3354,31.96,66,20,2.57,MY,1729135156
224,longyearbyen,78.2186,15.6401,-1.09,86,75,2.57,SJ,1729135253
225,santa terezinha,-29.9002,-50.0904,16.95,84,0,0.52,BR,1729135254
226,kapuskasing,49.4169,-82.4331,5.05,75,75,4.12,CA,1729135255
227,aspen,39.1911,-106.8175,8.69,53,0,4.12,US,1729135256
228,tual,-5.6667,132.75,27.86,75,97,3.38,ID,1729135257
229,debre mark'os,10.35,37.7333,9.72,84,8,2.46,ET,1729135258
230,ararat,39.8317,44.7049,16.37,61,93,2.09,AM,1729135259
231,franklin,39.9667,-83.0166,4.13,90,20,0.0,US,1729134613
232,chernyshevskiy,63.0128,112.4714,-11.74,73,96,3.08,RU,1729135262
233,takum,7.2667,9.9833,22.19,97,100,1.38,NG,1729135263
234,jawhar,2.7809,45.5005,25.09,75,84,5.51,SO,1729135264
235,narvik,68.4384,17.4272,6.32,88,100,3.76,NO,1729135265
236,ngetkib,7.3645,134.5148,32.14,66,75,5.14,PW,1729135266
237,sydney,-33.8679,151.2073,26.3,57,4,5.14,AU,1729134507
238,tyuratam,45.6507,63.3156,5.67,70,66,2.48,KZ,1729135268
239,kavieng,-2.5744,150.7967,29.04,73,69,1.93,PG,1729135269
240,fonte boa,-2.4959,-66.2662,25.74,76,100,1.58,BR,1729135271
241,port douglas,-16.4833,145.4667,26.48,75,13,5.01,AU,1729135272
242,maragogi,-9.0122,-35.2225,23.73,84,90,4.71,BR,1729135273
243,dudinka,69.4058,86.1778,-9.61,80,100,10.33,RU,1729135240
244,robore,-18.3333,-59.75,24.25,74,30,1.86,BO,1729135275
245,beau vallon,-20.4189,57.6953,21.13,88,40,1.54,MU,1729135276
246,alotau,-10.3069,150.4462,30.96,61,100,3.24,PG,1729135277
247,corupa,-26.4253,-49.2431,20.81,99,99,1.3,BR,1729135278
248,alice springs,-23.7,133.8833,34.75,29,20,10.8,AU,1729135182
249,vilyuchinsk,52.9306,158.4028,9.15,61,77,5.05,RU,1729135280
250,susuman,62.7833,148.1667,-10.29,91,100,3.02,RU,1729135282
251,nicoya,10.1483,-85.452,23.63,94,100,0.52,CR,1729135283
252,usinsk,65.9939,57.5281,0.02,92,69,5.8,RU,1729135285
253,caiaponia,-16.9567,-51.8103,23.64,61,97,1.33,BR,1729135286
254,crane,31.3974,-102.3501,16.26,47,0,7.06,US,1729135287
255,roha,18.4333,73.1167,25.28,94,100,0.63,IN,1729135132
256,bulanik,39.0929,42.2703,11.54,79,77,2.68,TR,1729135289
257,zouerate,22.7187,-12.4521,28.04,25,62,4.25,MR,1729135290
258,cill airne,52.05,-9.5167,12.54,93,87,2.61,IE,1729135292
259,zheleznogorsk-ilimskiy,56.5768,104.1217,-10.53,78,100,4.49,RU,1729135293
260,pustoshka,56.3355,29.369,1.7,78,28,1.89,RU,1729135294
261,east ballina,-28.8667,153.5833,20.75,77,25,4.4,AU,1729135295
262,uray,60.1247,64.7758,0.59,68,97,2.49,RU,1729135296
263,kingscliff,-28.2667,153.5667,24.97,78,25,4.12,AU,1729135297
264,antonio enes,-16.2325,39.9086,23.23,78,92,6.51,MZ,1729135298
265,rakvere,59.3464,26.3558,4.75,92,78,3.24,EE,1729135299
266,mandalgovi,45.7625,106.2708,7.52,47,44,4.72,MN,1729135300
267,qaqortoq,60.7167,-46.0333,-0.47,49,100,3.48,GL,1729135302
268,plastun,44.7561,136.2939,14.74,27,3,2.7,RU,1729135303
269,ugoofaaru,5.6667,73.0,27.89,77,82,6.19,MV,1729135274
270,xiaoweizhai,26.1903,107.5125,22.44,83,93,3.76,CN,1729135305
271,trondheim,63.4305,10.3951,13.03,65,100,0.45,NO,1729135306
272,pandharpur,17.6667,75.3333,26.84,74,64,4.12,IN,1729135307
273,kerikeri,-35.2268,173.9474,15.87,58,100,3.97,NZ,1729135042
274,whitefish,48.4111,-114.3376,10.56,69,20,6.69,US,1729135309
275,ziro,27.6333,93.8333,16.04,81,70,0.72,IN,1729135310
276,antsohihy,-14.8796,47.9875,23.73,81,39,1.22,MG,1729135311
277,bintulu,3.1667,113.0333,24.23,94,40,2.57,MY,1729135029
278,keflavik,64.0049,-22.5624,5.24,93,100,1.54,IS,1729135314
279,east london,-33.0153,27.9116,16.52,77,0,4.12,ZA,1729135315
280,bodaybo,57.8506,114.1933,-9.0,66,100,5.73,RU,1729135316
281,san matias,-16.3667,-58.4,25.18,68,100,1.48,BO,1729135317
282,vikhorevka,56.1201,101.1636,-7.31,57,36,4.08,RU,1729135247
283,baruun-urt,46.6806,113.2792,5.66,54,28,5.54,MN,1729135319
284,codajas,-3.8367,-62.0569,27.44,59,55,0.92,BR,1729135321
285,yeniseysk,58.4497,92.1703,-4.18,53,23,0.24,RU,1729135322
286,kailua-kona,19.6406,-155.9956,28.98,75,20,4.12,US,1729135324
287,punta arenas,-53.15,-70.9167,9.06,81,100,4.12,CL,1729135254
288,timimoun,29.2639,0.231,23.21,28,0,2.57,DZ,1729135326
289,sibenik,43.7272,15.9058,18.54,87,100,0.89,HR,1729135327
290,meulaboh,4.1363,96.1285,27.57,80,27,1.52,ID,1729135328
291,ust'-ilimsk,58.0006,102.6619,-9.16,72,87,4.83,RU,1729135329
292,tromso,69.6496,18.957,9.01,71,100,4.12,NO,1729135330
293,misliyah,17.4599,42.5572,28.65,69,66,1.39,SA,1729135331
294,pader,3.05,33.2167,18.97,92,100,1.27,UG,1729135332
295,khlung,12.4547,102.2214,30.18,85,95,0.61,TH,1729135333
296,rongelap,11.1635,166.8941,28.4,78,96,4.9,MH,1729135334
297,halifax,44.6453,-63.5724,5.81,86,70,2.68,CA,1729134716
298,newman,37.3138,-121.0208,18.92,73,4,0.89,US,1729135337
299,brookings,44.3114,-96.7984,12.0,33,0,9.77,US,1729135338
300,gypsum,39.6469,-106.9517,11.15,49,100,1.54,US,1729135170
301,mermoz boabab,14.7065,-17.4758,26.88,94,20,3.09,SN,1729135340
302,banlung,13.7468,107.0045,30.08,60,50,0.55,KH,1729135342
303,macapa,0.0389,-51.0664,27.99,83,20,3.6,BR,1729135267
304,extrema,-22.8547,-46.3183,16.8,93,28,1.45,BR,1729135344
305,kaiama,9.6225,3.9481,22.77,91,100,1.82,NG,1729135345
306,pangoa,-12.1167,-73.0,19.94,97,68,1.48,PE,1729135346
307,susanville,40.4163,-120.653,7.68,89,23,0.45,US,1729135347
308,muniz freire,-20.4642,-41.4131,19.56,81,8,2.23,BR,1729135348
309,norilsk,69.3535,88.2027,-12.86,92,100,4.94,RU,1729135349
310,pauini,-7.7136,-66.9764,23.96,76,99,0.53,BR,1729135350
311,north bend,43.4065,-124.2243,11.8,100,0,0.0,US,1729135098
312,katabu,-4.9333,122.5167,33.47,42,57,1.39,ID,1729135353
313,coquimbo,-29.9533,-71.3436,10.85,93,0,3.09,CL,1729135354
314,yayva,59.3303,57.2641,0.84,98,100,1.32,RU,1729135355
315,zomba,-15.386,35.3188,15.3,83,100,2.24,MW,1729135356
316,port lincoln,-34.7333,135.8667,17.62,84,100,6.94,AU,1729135357
317,canutama,-6.5339,-64.3831,27.13,60,89,1.09,BR,1729135358
318,buritizeiro,-17.3511,-44.9622,23.03,66,100,1.13,BR,1729135310
319,porto novo,6.4965,2.6036,26.9,92,100,1.57,BJ,1729135360
320,kindu,-2.95,25.95,20.41,99,100,0.31,CD,1729135362
321,fort st. john,56.2499,-120.8529,5.94,61,40,8.23,CA,1729135363
322,isangel,-19.55,169.2667,26.06,73,75,2.57,VU,1729135365
323,shalkar,47.8288,59.6258,4.61,44,100,2.55,KZ,1729135366
324,aitape,-3.1374,142.3475,30.55,62,35,3.32,PG,1729135367
325,tianpeng,30.9866,103.9393,20.24,67,0,1.28,CN,1729135368
326,nolinsk,57.5596,49.9363,3.85,97,100,0.79,RU,1729135369
327,bom jesus,-9.0744,-44.3586,27.1,54,84,0.67,BR,1729135370
328,flin flon,54.7682,-101.865,7.43,66,100,4.67,CA,1729135372
329,nynashamn,58.9034,17.9479,10.26,79,47,8.38,SE,1729135373
330,tocopilla,-22.092,-70.1979,18.5,71,0,2.8,CL,1729135089
331,polyarnyy,69.1989,33.4478,2.51,88,78,4.33,RU,1729135376
332,tarawa,1.419,172.984,31.05,74,40,2.57,KI,1729135377
333,lata,40.1629,-8.3327,11.17,94,63,1.41,PT,1729135378
334,chui,-33.6971,-53.4616,11.7,95,5,1.91,UY,1729135379
335,almeirim,-1.5233,-52.5817,27.02,62,29,2.71,BR,1729135380
336,kertih,4.5141,103.4483,31.01,70,20,2.06,MY,1729135381
337,swift current,50.2834,-107.8014,12.45,58,0,3.6,CA,1729135382
338,puerto armuelles,8.2833,-82.8667,25.61,88,100,1.34,PA,1729135384
339,thanh hoa,19.8,105.7667,28.97,71,100,1.82,VN,1729135385
340,ixtapa,20.7,-105.2,28.57,79,20,1.54,MX,1729135125
341,porkhov,57.765,29.5561,2.64,95,38,2.45,RU,1729135387
342,miracema do tocantins,-9.5618,-48.3967,23.72,88,93,0.54,BR,1729135388
343,kasongo,-4.45,26.6667,19.74,98,100,0.63,CD,1729135389
344,takestan,36.0696,49.6959,14.42,57,0,0.63,IR,1729135390
345,vedaraniyam,10.3667,79.85,26.73,73,100,4.14,IN,1729135391
346,prince albert,53.2001,-105.7677,7.97,71,75,2.06,CA,1729135143
347,plymouth,41.8334,-70.8328,7.09,86,0,3.6,US,1729135393
348,celestun,20.8667,-90.4,25.34,81,54,6.76,MX,1729135394
349,erdenet,49.0333,104.0833,3.07,58,6,4.04,MN,1729135396
350,thunder bay,48.4001,-89.3168,0.99,86,40,1.03,CA,1729135397
351,zeya,53.75,127.2667,1.96,52,79,3.29,RU,1729135201
352,secovce,48.7007,21.661,3.81,86,1,1.33,SK,1729135399
353,brisas de zicatela,15.8369,-97.0419,27.03,82,2,1.55,MX,1729135400
354,waingapu,-9.6567,120.2641,31.28,56,77,4.45,ID,1729135401
355,whangarei,-35.7317,174.3239,16.8,53,100,3.52,NZ,1729135402
356,nova sintra,14.8667,-24.7167,26.39,80,10,2.4,CV,1729135403
357,jaguaribe,-5.8906,-38.6219,24.68,77,81,5.49,BR,1729135404
358,nikolayevsk-on-amure,53.1406,140.73,3.96,47,36,5.02,RU,1729135181
359,aykol,38.1751,77.2132,15.35,23,95,2.95,CN,1729135406
360,esil,51.9556,66.4042,1.38,63,0,2.2,KZ,1729135408
361,monte santo,-10.4378,-39.3328,20.98,86,50,3.75,BR,1729135409
362,loango,-4.6719,11.8312,25.81,83,75,5.14,CG,1729135410
363,el abiodh sidi cheikh,32.893,0.5484,19.85,44,4,0.83,DZ,1729135411
364,olds,51.7834,-114.102,9.02,60,100,0.72,CA,1729135412
365,ghazni,33.5536,68.4269,13.68,28,0,1.18,AF,1729135413
366,sainte-suzanne,-20.9061,55.6089,24.8,73,0,3.09,RE,1729135414
367,puerto san jose,13.9256,-90.8244,26.43,83,0,2.25,GT,1729135415
368,la ravoire,45.5598,5.9687,15.62,95,100,1.54,FR,1729135416
369,broome,42.2506,-75.833,4.25,75,0,1.54,US,1729135417
370,arraial do cabo,-22.9661,-42.0278,22.26,88,59,5.78,BR,1729135418
371,poronaysk,49.2167,143.1167,9.41,45,63,7.46,RU,1729135420
372,tolanaro,-25.0319,46.9987,19.04,72,40,4.12,MG,1729135421
373,corner brook,48.9667,-57.9484,6.28,91,85,3.5,CA,1729135301
374,ta`u,-14.2336,-169.5144,26.76,65,36,5.07,AS,1729135423
375,vorgashor,67.5833,63.95,-0.37,98,100,6.39,RU,1729135424
376,bamboo flat,11.7,92.7167,29.05,89,40,1.03,IN,1729135426
377,sao vicente,-23.9631,-46.3919,20.55,26,0,2.4,BR,1729135255
378,saipan,15.1355,145.701,27.39,89,75,4.12,MP,1729135397
379,al kharijah,25.4514,30.5464,22.1,54,0,2.82,EG,1729135429
380,charters towers,-20.1,146.2667,33.8,24,0,7.24,AU,1729135431
381,songling,31.1933,120.7176,25.54,75,84,4.02,CN,1729135432
382,ola,59.5833,151.2833,2.43,95,100,12.03,RU,1729135433
383,unai,-16.3575,-46.9061,21.51,93,99,1.62,BR,1729135436
384,kostomuksha,64.571,30.5767,1.61,98,69,3.59,RU,1729135437
385,miahuatlan de porfirio diaz,16.3333,-96.6,17.13,76,24,2.19,MX,1729135438
386,acajutla,13.5928,-89.8275,26.32,83,30,2.32,SV,1729135439
387,balboa,2.0396,-77.2168,16.67,93,49,0.76,CO,1729135440
388,barra de santo antonio,-9.4047,-35.5072,24.13,84,70,5.47,BR,1729135441
389,kirishi,59.4471,32.0205,4.65,93,99,2.55,RU,1729135442
390,saudarkrokur,65.7461,-19.6394,0.1,94,100,4.11,IS,1729135443
391,port maria,18.3685,-76.8895,25.9,80,100,2.43,JM,1729135445
392,akjoujt,19.6969,-14.4164,29.23,51,100,5.47,MR,1729135446
393,rikaze,29.25,88.8833,8.62,38,1,0.95,CN,1729135447
394,remire-montjoly,4.9167,-52.2667,25.02,94,20,0.0,GF,1729135226
395,sekong,-6.3996,106.0252,31.9,35,96,2.46,ID,1729135449
396,sao jose da coroa grande,-8.8978,-35.1478,24.38,82,100,5.29,BR,1729135450
397,zemio,5.0314,25.1361,20.7,97,99,0.42,CF,1729135451
398,zhaodong,46.0833,125.9833,10.92,40,4,1.69,CN,1729135452
399,fort bragg,35.139,-79.006,8.91,72,0,3.09,US,1729135454
400,kasserine,35.1676,8.8365,18.55,75,6,1.24,TN,1729135456
401,sao joao da barra,-21.6403,-41.0511,23.0,93,24,2.91,BR,1729135457
402,chatham,51.3789,0.5279,15.12,67,83,4.86,GB,1729135458
403,madimba,-10.4,40.3333,23.5,84,35,4.38,TZ,1729135459
404,indramayu,-6.3264,108.32,30.41,45,99,1.28,ID,1729135460
405,berezovyy,51.6667,135.7,6.32,30,1,4.67,RU,1729135461
406,puerto maldonado,-12.6,-69.1833,26.3,61,14,0.97,PE,1729135462
407,pedernales,18.0384,-71.744,27.18,65,48,1.86,DO,1729135464
408,saint croix,17.7397,-64.7388,27.2,83,0,2.57,VI,1729135465
409,becerril,9.7041,-73.2793,25.11,86,100,1.43,CO,1729135466
410,port blair,11.6667,92.75,29.02,89,40,1.03,IN,1729135467
411,margate,51.3813,1.3862,14.83,91,88,5.01,GB,1729135468
412,severnoye,56.3491,78.3619,0.25,82,12,1.53,RU,1729135469
413,popondetta,-8.7537,148.2534,32.25,57,71,2.19,PG,1729135470
414,piterka,50.6803,47.4454,6.14,90,100,5.17,RU,1729135471
415,tazovsky,67.4667,78.7,-1.87,96,100,8.46,RU,1729135472
416,ancud,-41.8697,-73.8203,10.42,96,100,5.24,CL,1729135473
417,tralee,52.2704,-9.7026,11.72,96,70,2.58,IE,1729135475
418,usogorsk,63.4106,48.6872,0.33,95,24,1.99,RU,1729135477
419,kirando,-7.4167,30.6,23.41,75,58,2.26,TZ,1729135478
420,roccella ionica,38.322,16.4009,20.79,64,100,2.06,IT,1729135479
421,grand falls-windsor,48.9332,-55.6649,4.72,92,31,2.1,CA,1729135480
422,pago pago,-14.2781,-170.7025,29.55,66,40,5.14,AS,1729135481
423,port hedland,-20.3167,118.5667,30.03,25,0,4.63,AU,1729135482
424,fale old settlement,-9.3852,-171.2468,28.34,72,23,5.59,TK,1729135483
425,zhanaozen,43.3,52.8,9.36,35,92,7.66,KZ,1729135485
426,coahuayana de hidalgo,18.7,-103.6583,25.95,91,57,0.57,MX,1729135486
427,nigde,37.8333,34.75,6.84,72,26,1.25,TR,1729135487
428,ji'an,27.1172,114.9793,26.59,65,93,0.39,CN,1729135489
429,kargasok,59.0556,80.8572,-1.17,79,82,3.74,RU,1729135490
430,bikenibeu village,1.3673,173.1241,30.98,74,40,2.57,KI,1729135492
431,hell-ville,-13.4,48.2667,21.93,78,40,0.0,MG,1729135493
432,colares,38.7992,-9.4469,16.29,82,1,9.45,PT,1729135494
433,hard bargain,26.3167,-77.5667,26.1,73,100,6.76,BS,1729135496
434,gantang,26.92,119.6333,28.07,62,0,0.12,CN,1729135497
435,lerwick,60.1545,-1.1494,11.56,98,100,10.18,GB,1729135498
436,buala,-8.145,159.5921,28.9,76,99,2.06,SB,1729135499
437,polva,58.0603,27.0694,2.97,91,22,2.88,EE,1729135500
438,savalou,7.9281,1.9756,22.52,96,100,0.68,BJ,1729135502
439,nyala,12.05,24.8833,24.9,68,34,2.04,SD,1729135503
440,machico,32.7,-16.7667,22.35,73,20,4.63,PT,1729135504
441,nova odesa,47.3078,31.7851,7.32,83,53,5.07,UA,1729135505
442,devils lake,48.1128,-98.8651,12.99,46,0,6.17,US,1729135465
443,haiku-pauwela,20.9219,-156.3051,27.01,62,20,12.35,US,1729135508
444,ascension,30.2169,-90.9001,14.0,54,0,1.54,US,1729135509
445,rio blanco,18.8333,-97.15,17.37,99,100,1.32,MX,1729135511
446,balotra,25.8333,72.2333,30.59,43,8,2.65,IN,1729135513
447,tofol,5.3248,163.0078,28.02,81,100,10.86,FM,1729135514
448,tarinkot,32.6268,65.8733,19.63,21,0,1.3,AF,1729135515
449,phan rang-thap cham,11.5667,108.9833,24.46,95,100,0.88,VN,1729135516
450,portland,45.5234,-122.6762,12.91,75,25,2.68,US,1729135189
451,nebraska city,40.6767,-95.8592,9.4,40,0,5.66,US,1729135518
452,walvis bay,-22.9575,14.5053,9.53,93,0,3.09,NA,1729135519
453,watford city,47.8022,-103.2832,10.92,43,82,2.06,US,1729135331
454,vernon,50.2581,-119.2691,9.74,45,41,0.89,CA,1729135521
455,san martin,-33.081,-68.4681,24.24,61,0,3.4,AR,1729135231
456,cheyenne,41.14,-104.8203,17.18,38,20,6.17,US,1729135500
457,aver-o-mar,41.4078,-8.7812,13.31,94,40,0.0,PT,1729135525
458,adre,13.4667,22.2,25.44,28,100,2.49,TD,1729135526
459,riberalta,-10.9833,-66.1,27.35,61,80,2.26,BO,1729135527
460,cidade velha,14.9167,-23.6167,25.26,88,40,4.12,CV,1729135528
461,constitucion,-35.3333,-72.4167,10.58,91,0,1.83,CL,1729135529
462,thinadhoo,0.5333,72.9333,28.64,74,35,7.45,MV,1729135530
463,jindabyne,-36.4167,148.6333,21.43,44,55,1.34,AU,1729135531
464,arkhangel'sk,64.5401,40.5433,1.06,100,75,2.0,RU,1729135498
465,bubaque,11.2833,-15.8333,27.39,74,85,1.25,GW,1729135533
466,saynshand,44.8824,110.1163,8.27,51,14,1.55,MN,1729135534
467,raja,8.4596,25.678,21.05,96,79,0.99,SS,1729135536
468,dalandzadgad,43.5708,104.425,11.76,45,83,4.36,MN,1729135537
469,cape coast,5.1053,-1.2466,24.61,91,59,3.09,GH,1729135521
470,padre bernardo,-15.35,-48.5,20.06,87,100,0.55,BR,1729135539
471,mana,5.6592,-53.7767,26.51,79,67,3.51,GF,1729135540
472,sucua,-2.4667,-78.1667,21.31,86,90,1.73,EC,1729135541
473,lesnoy,57.6198,63.0784,0.04,76,98,2.0,RU,1729135542
474,najran,17.4924,44.1277,17.42,33,67,1.07,SA,1729135455
475,frontera,26.9333,-101.45,23.27,66,29,3.58,MX,1729135544
476,kincardine,56.0667,-3.7167,13.37,99,100,1.94,GB,1729135545
477,kota bharu,6.1333,102.2386,30.97,74,20,1.54,MY,1729135547
478,turek,52.0155,18.5005,6.46,64,3,7.15,PL,1729135548
479,spokane valley,47.6732,-117.2394,9.97,76,67,5.07,US,1729135549
480,hanzhong,33.0728,107.0303,20.69,70,100,0.27,CN,1729135550
481,cuyo,10.8525,121.0086,28.91,73,91,3.77,PH,1729135551
482,hampton bays,40.869,-72.5176,11.03,68,0,9.39,US,1729135552
483,praia da vitoria,38.7333,-27.0667,16.14,88,0,2.48,PT,1729135554
484,siwa oasis,29.2041,25.5195,22.07,67,0,2.56,EG,1729135556
485,altay,47.8667,88.1167,5.16,60,100,1.2,CN,1729135557
486,sokoni,-6.4333,39.55,25.53,81,74,3.19,TZ,1729135558
487,saint-pierre,-21.3393,55.4781,22.82,73,0,2.57,RE,1729135559
488,puerto baquerizo moreno,-0.9,-89.6,20.63,86,90,5.34,EC,1729135560
489,uige,-7.6087,15.0613,20.16,97,100,1.23,AO,1729135561
490,gisborne,-38.6533,178.0042,13.13,58,2,3.77,NZ,1729135564
491,tarko-sale,64.9225,77.785,-0.3,85,100,9.5,RU,1729135565
492,bykovo,55.6361,38.0803,-0.15,100,0,3.0,RU,1729135566
493,irtyshsk,53.3333,75.4572,2.44,75,0,1.64,KZ,1729135567
494,nieuw amsterdam,5.8833,-55.0833,25.6,82,60,3.4,SR,1729135568
495,lospalos,-8.5186,127.0025,30.4,43,5,4.74,TL,1729135569
496,neka,36.6508,53.299,13.73,94,0,3.09,IR,1729135570
497,savonlinna,61.8699,28.88,7.03,81,100,3.09,FI,1729135571
498,cannonvale,-20.2833,148.7,25.66,68,0,4.95,AU,1729135573
499,colonia menno,-22.3667,-59.8167,27.42,55,62,3.78,PY,1729135574
500,amga,60.8953,131.9608,-3.21,86,81,0.51,RU,1729135575
501,gorgoram,12.6398,10.7039,28.03,37,80,2.17,NG,1729135576
502,rabo de peixe,37.8,-25.5833,17.77,99,20,3.09,PT,1729135577
503,turpan,42.9333,89.1667,19.53,27,97,1.92,CN,1729135578
504,mata-utu,-13.2816,-176.1745,27.25,82,18,6.6,WF,1729135336
505,magadan,59.5667,150.8,1.72,98,100,7.38,RU,1729135580
506,villa dolores,-31.9459,-65.1896,25.3,59,7,1.49,AR,1729135583
507,geraldton,-28.7667,114.6,22.23,60,75,6.17,AU,1729135584
508,san antonio,29.4241,-98.4936,18.37,35,20,4.63,US,1729135487
509,zaozersk,69.4005,32.4476,2.2,90,100,4.66,RU,1729135586
510,pundong,-7.9522,110.3486,28.78,54,100,5.98,ID,1729135587
511,nchelenge,-9.3451,28.734,21.34,72,71,2.73,ZM,1729135588
512,phuthaditjhaba,-28.5242,28.8158,11.39,76,4,1.92,ZA,1729135589
513,callao,-12.0667,-77.15,18.73,82,75,6.69,PE,1729135199
514,qamdo,31.1667,97.2333,3.57,50,100,2.55,CN,1729135591
515,el porvenir,13.7617,-87.3458,22.05,95,99,1.61,HN,1729135593
516,arkansas city,37.062,-97.0384,9.08,34,0,2.57,US,1729135594
517,cromwell,41.5951,-72.6454,7.49,74,0,2.57,US,1729135595
518,lautoka,-17.6167,177.4667,22.92,83,100,6.17,FJ,1729135596
519,aral,40.5156,81.2636,19.07,25,59,4.64,CN,1729135597
520,novodvinsk,64.4165,40.8122,0.86,90,88,3.02,RU,1729135598
521,egilsstadir,65.2653,-14.3948,0.95,100,100,1.54,IS,1729135599
522,beichengqu,40.4394,113.1536,12.3,77,100,2.88,CN,1729135600
523,fuli,46.7217,131.1394,12.51,35,3,3.34,CN,1729135601
524,solnechnyy,50.7214,136.6319,7.08,31,2,4.89,RU,1729135603
525,gamay,12.3854,125.2979,31.22,58,76,2.61,PH,1729135604
526,boa viagem,-5.1275,-39.7322,23.75,70,22,3.14,BR,1729135606
527,williams lake,52.1415,-122.1445,4.76,90,40,1.54,CA,1729135607
528,mamuju,-2.6748,118.8885,30.43,65,77,1.72,ID,1729135608
529,jiangkou,25.4872,119.1986,28.58,62,3,4.42,CN,1729135609
530,waiuku,-37.25,174.75,17.59,64,100,3.73,NZ,1729135610
531,piti village,13.4626,144.6933,30.03,79,40,3.09,GU,1729135612
532,nelson bay,-32.7167,152.15,19.22,73,3,5.19,AU,1729135613
533,honefoss,60.168,10.2565,5.9,96,100,1.42,NO,1729135615
534,freetown,8.484,-13.2299,25.16,89,39,2.71,SL,1729135616
535,harstad,68.799,16.5293,8.42,77,100,5.36,NO,1729135617
536,bathsheba,13.2167,-59.5167,28.34,78,20,5.66,BB,1729135619
537,souillac,-20.5167,57.5167,21.21,88,40,1.54,MU,1729135620
538,garachico,28.7781,-17.7646,19.71,78,75,5.66,ES,1729135622
539,igarka,67.4667,86.5833,-9.81,80,100,9.43,RU,1729135624
540,muhammadabad,25.6333,83.75,25.93,51,6,1.73,IN,1729135625
541,imbituba,-28.24,-48.6703,17.45,92,98,2.03,BR,1729135626
542,atherton,53.5237,-2.4935,14.14,97,100,1.57,GB,1729135627
543,laascaanood,8.4774,47.3597,24.82,63,78,4.21,SO,1729135629
544,berber,18.0216,33.983,29.28,22,2,3.43,SD,1729135630
